{
  "date_bulletin": "Bulletin du 01 Janvier 2024 à 12h00_page1_map1",
  "stations": [
    {
      "nom": "BANFORA",
      "latitude": 10.6333,
      "longitude": -4.7667,
      "Tmin_obs": null,
      "Tmax_obs": null,
      "temps_obs": "",
      "Tmin_prev": 18,
      "Tmax_prev": 35,
      "temps_prev": "ensoleillé",
      "interpretation_moore": "",
      "interpretation_dioula": ""
    },
    {
      "nom": "BOBO DIOULASSO",
      "latitude": 11.1833,
      "longitude": -4.2833,
      "Tmin_obs": 18,
      "Tmax_obs": 34,
      "temps_obs": "ensoleillé",
      "Tmin_prev": 18,
      "Tmax_prev": 35,
      "temps_prev": "ensoleillé",
      "interpretation_moore": "",
      "interpretation_dioula": ""
    },
    {
      "nom": "BOGANDE",
      "latitude": 12.9667,
      "longitude": -0.1333,
      "Tmin_obs": 16,
      "Tmax_obs": 34,
      "temps_obs": "ensoleillé",
      "Tmin_prev": 17,
      "Tmax_prev": 35,
      "temps_prev": "ensoleillé",
      "interpretation_moore": "",
      "interpretation_dioula": ""
    },
    {
      "nom": "BOROMO",
      "latitude": 11.75,
      "longitude": -2.9333,
      "Tmin_obs": 15,
      "Tmax_obs": 36,
      "temps_obs": "ensoleillé",
      "Tmin_prev": 17,
      "Tmax_prev": 36,
      "temps_prev": "ensoleillé",
      "interpretation_moore": "",
      "interpretation_dioula": ""
    },
    {
      "nom": "DEDOUGOU",
      "latitude": 12.4667,
      "longitude": -3.4667,
      "Tmin_obs": 16,
      "Tmax_obs": 35,
      "temps_obs": "ensoleillé",
      "Tmin_prev": 18,
      "Tmax_prev": 35,
      "temps_prev": "ensoleillé",
      "interpretation_moore": "",
      "interpretation_dioula": ""
    },
    {
      "nom": "DORI",
      "latitude": 14.0333,
      "longitude": -0.0333,
      "Tmin_obs": null,
      "Tmax_obs": null,
      "temps_obs": "",
      "Tmin_prev": 15,
      "Tmax_prev": 35,
      "temps_prev": "ensoleillé",
      "interpretation_moore": "",
      "interpretation_dioula": ""
    },
    {
      "nom": "GAOUA",
      "latitude": 10.3333,
      "longitude": -3.1833,
      "Tmin_obs": 14,
      "Tmax_obs": 35,
      "temps_obs": "ensoleillé",
      "Tmin_prev": 16,
      "Tmax_prev": 36,
      "temps_prev": "ensoleillé",
      "interpretation_moore": "",
      "interpretation_dioula": ""
    },
    {
      "nom": "GOROM GOROM",
      "latitude": 14.4333,
      "longitude": -0.2333,
      "Tmin_obs": null,
      "Tmax_obs": null,
      "temps_obs": "",
      "Tmin_prev": 15,
      "Tmax_prev": 35,
      "temps_prev": "ensoleillé",
      "interpretation_moore": "",
      "interpretation_dioula": ""
    },
    {
      "nom": "KOUDOUGOU",
      "latitude": 12.25,
      "longitude": -2.3667,
      "Tmin_obs": 15,
      "Tmax_obs": 36,
      "temps_obs": "ensoleillé",
      "Tmin_prev": null,
      "Tmax_prev": null,
      "temps_prev": "",
      "interpretation_moore": "",
      "interpretation_dioula": ""
    },
    {
      "nom": "OUAGADOUGOU",
      "latitude": 12.3714,
      "longitude": -1.5197,
      "Tmin_obs": 15,
      "Tmax_obs": 35,
      "temps_obs": "ensoleillé",
      "Tmin_prev": 17,
      "Tmax_prev": 35,
      "temps_prev": "ensoleillé",
      "interpretation_moore": "",
      "interpretation_dioula": ""
    },
    {
      "nom": "OUAHIGOUYA",
      "latitude": 13.5667,
      "longitude": -2.4167,
      "Tmin_obs": 17,
      "Tmax_obs": 35,
      "temps_obs": "ensoleillé",
      "Tmin_prev": 18,
      "Tmax_prev": 36,
      "temps_prev": "ensoleillé",
      "interpretation_moore": "",
      "interpretation_dioula": ""
    },
    {
      "nom": "PO",
      "latitude": 11.1667,
      "longitude": -1.15,
      "Tmin_obs": 17,
      "Tmax_obs": 36,
      "temps_obs": "ensoleillé",
      "Tmin_prev": 19,
      "Tmax_prev": 36,
      "temps_prev": "ensoleillé",
      "interpretation_moore": "",
      "interpretation_dioula": ""
    }
  ]
}